{
"type": "FeatureCollection",
"name": "facilities-07may2019",
"crs": { "type": "name", "properties": { "name": "urn:ogc:def:crs:OGC:1.3:CRS84" } },
"features": [
{ "type": "Feature", "properties": { "FID": 0, "name": "Kitimat M\/S" }, "geometry": { "type": "Point", "coordinates": [ -128.684565837286982, 54.023003202509216 ] } },
{ "type": "Feature", "properties": { "FID": 1, "name": "Goosly Falls C\/S" }, "geometry": { "type": "Point", "coordinates": [ -126.428145177878136, 54.157611460917572 ] } },
{ "type": "Feature", "properties": { "FID": 2, "name": "Titanium Peek C\/S" }, "geometry": { "type": "Point", "coordinates": [ -127.598214163031372, 54.219648046003648 ] } },
{ "type": "Feature", "properties": { "FID": 3, "name": "Clear Creek C\/S" }, "geometry": { "type": "Point", "coordinates": [ -124.144762144014535, 54.136742785234908 ] } },
{ "type": "Feature", "properties": { "FID": 4, "name": "Segundo Lake C\/S" }, "geometry": { "type": "Point", "coordinates": [ -125.393868712186787, 54.085091821603946 ] } },
{ "type": "Feature", "properties": { "FID": 6, "name": "Wild Lake M\/S" }, "geometry": { "type": "Point", "coordinates": [ -120.895628128413222, 55.795625596949492 ] } },
{ "type": "Feature", "properties": { "FID": 7, "name": "Mount Bracey C\/S" }, "geometry": { "type": "Point", "coordinates": [ -122.224976649118446, 54.915512970564457 ] } },
{ "type": "Feature", "properties": { "FID": 8, "name": "Sakunka Falls C\/S" }, "geometry": { "type": "Point", "coordinates": [ -121.77537457347249, 55.427628897574849 ] } },
{ "type": "Feature", "properties": { "FID": 9, "name": "Racoon Lake C\/S" }, "geometry": { "type": "Point", "coordinates": [ -123.126703538050734, 54.421724984322815 ] } }
]
}
